{
  "file": "./models/stations.json",
  "stations": [
    {
      "title": "Zurich",
      "latitude": 47.359,
      "longitude": 8.635,
      "userid": "e9435c20-1503-49cb-897b-d4b77c9c2dfa",
      "_id": "949bbb7f-09fa-48c8-94ca-989b29c2289e"
    },
    {
      "title": "London",
      "latitude": 51.509,
      "longitude": -0.118,
      "userid": "e9435c20-1503-49cb-897b-d4b77c9c2dfa",
      "_id": "60ce3f0c-8676-4d50-8880-3d6b034b59a4"
    },
    {
      "title": "Dublin",
      "latitude": 53.35,
      "longitude": -6.266,
      "userid": "e9435c20-1503-49cb-897b-d4b77c9c2dfa",
      "_id": "e1612229-6d6e-49c3-a392-b760c648a5b3"
    },
    {
      "title": "Rome",
      "latitude": 41.902,
      "longitude": 12.496,
      "userid": "e9435c20-1503-49cb-897b-d4b77c9c2dfa",
      "_id": "3a73c9e0-1f2a-4860-8963-8c257d4a4f46"
    },
    {
      "title": "Madrid",
      "latitude": 40.416,
      "longitude": -3.703,
      "userid": "e9435c20-1503-49cb-897b-d4b77c9c2dfa",
      "_id": "da3e43ad-5a80-433a-bed7-cf64d3fdb6f3"
    },
    {
      "title": "Paris",
      "latitude": 48.856,
      "longitude": 2.352,
      "userid": "e9435c20-1503-49cb-897b-d4b77c9c2dfa",
      "_id": "3ca281a5-5067-4f16-a0b6-136aee837fa3"
    }
  ]
}